[{"latitude": 46.55112099999999, "city": "La Gen\u00eate", "name": "333 Armand David Botanical Garden ", "longitude": 5.044745, "country": "FRANCE"}, {"latitude": 55.6931524, "city": "Kobenhavnk K", "name": "Botanic Garden University of Copenhagen ", "longitude": 12.6131785, "country": "DANMARK"}, {"latitude": 48.583148, "city": "Strasbourg Cedex", "name": "Jardin Botanique Universite Louis Pasteur ", "longitude": 7.747882, "country": "FRANCE"}, {"latitude": 44.802614, "city": "Talence", "name": "Jardin Botanique de Talence ", "longitude": -0.588054, "country": "FRANCE"}, {"latitude": 47.394144, "city": "Tours", "name": "Jardin Botanique de la Facult\u00e9 de Pharmacie Laboratoire de Biologie V\u00e9g.", "longitude": 0.68484, "country": "FRANCE"}, {"latitude": 48.67321800000001, "city": "Villers-les-Nancy", "name": "Conservatoire & Jardins Botaniques de Nancy - Le Monet", "longitude": 6.153496, "country": "FRANCE"}, {"latitude": 48.513072, "city": "Marnay sur Seine", "name": "Jardin des Plantes de Marnay sur Seine ", "longitude": 3.557646, "country": "FRANCE"}, {"latitude": 43.610769, "city": "Montpellier", "name": "Jardin des Plantes Universit\u00e9 de Montpellier ", "longitude": 3.876716, "country": "FRANCE"}, {"latitude": 46.697284, "city": "Co\u00ebx", "name": "Jardin Botanique des Olfacties  ", "longitude": -1.762595, "country": "FRANCE"}, {"latitude": 48.403304, "city": "Milly-la-For\u00e9t", "name": "Conservatoire National dePlantes \u00e0 Parfum, Medicinales, Aromatiques et Industrielles, CNPMAI", "longitude": 2.468334, "country": "FRANCE"}, {"latitude": 51.48431100000001, "city": "London SW3 4HS", "name": "Chelsea Physic Garden  ", "longitude": -0.1633523, "country": "United Kingdom"}, {"latitude": 51.7512346, "city": "Oxford/England OX1 4AZ", "name": " University Botanic Garden ", "longitude": -1.2468815, "country": "United Kingdom"}, {"latitude": 47.621547, "city": "Budakal\u00e1sz", "name": "Hortus Botanicus Instituti Plantarum Medicinalium ", "longitude": 19.045966, "country": "HUNGARY"}, {"latitude": 47.4984056, "city": "Budapest", "name": "Szent Istvan Efyetem Soroksari Botanikus Kert Universitas de Sancto Stephano nominatae", "longitude": 19.0407578, "country": "HUNGARY"}, {"latitude": 47.4984056, "city": "Budapest", "name": "Vera Csapody Hardy Plant Society of Hungary - Seed Exchange Kal\u00e1szin\u00e9 D. Ilona", "longitude": 19.0407578, "country": "HUNGARY"}, {"latitude": 47.4886002, "city": "Budapest VIII", "name": "Elte Botanikus Kert E\u00f6tv\u00f6s Lorand University of Sciences ", "longitude": 19.2620174, "country": "HUNGARY"}, {"latitude": 47.684898, "city": "Sopron", "name": "Botanikus Kertje Erdeszeti es Faipari Egyetem", "longitude": 16.583053, "country": "HUNGARY"}, {"latitude": 43.937826, "city": "Mane en Provence", "name": "Jardins ethnobotaniques de Salagon Prieur\u00e9 de Salagon ", "longitude": 5.766929999999999, "country": "FRANCE"}, {"latitude": 47.237829, "city": "Besan\u00e7on", "name": "Jardin Botanique de la Ville et de l'Universit\u00e9", "longitude": 6.024053899999999, "country": "FRANCE"}, {"latitude": 65.683868, "city": "Akureyri", "name": "Public Garden and Botanic Garden Lustigardur Akureyrar", "longitude": -18.11046, "country": "ICELAND"}, {"latitude": 40.4166909, "city": "Madrid", "name": "Real Jard\u00edn Bot\u00e1nico (CSIC) U.S. Jardineria ", "longitude": -3.700345399999999, "country": "SPAIN"}, {"latitude": 36.7196484, "city": "Malaga", "name": "Jardin Botanico Historico \"La Conception\" Patronato Botanico Municipal Ciudad de Malaga", "longitude": -4.420016299999999, "country": "SPAIN"}, {"latitude": 40.481663, "city": "Alcal\u00e1 de Henares", "name": "Real Jard\u00edn Bot\u00e1nico Juan Carlos 1 Universidad de Alcal\u00e1", "longitude": -3.3641362, "country": "SPAIN"}, {"latitude": 42.4160408, "city": "N\u00e1jera (La Rioja)", "name": "Fundacion el botanico Jardin Botanico de La Rioja", "longitude": -2.7343237, "country": "SPAIN"}, {"latitude": 53.340982, "city": "Dublin 9", "name": "National Botanic Gardens  ", "longitude": -6.2546, "country": "REP. OF IRELAND"}, {"latitude": 49.44323199999999, "city": "Rouen", "name": "Jardin Botanique de Rouen Mairie de Rouen, Directiondes Espaces Verts", "longitude": 1.099971, "country": "FRANCE"}, {"latitude": 47.478419, "city": "Angers Cedex", "name": "Jardin Botanique Facult\u00e9 de Pharmacie U.F.R des Scienses Pharmaceutiques & d'Ing\u00e9nierie de la Sant\u00e9", "longitude": -0.5631659999999999, "country": "FRANCE"}, {"latitude": 46.4676064, "city": "Bormio SO", "name": "Giardino Botanico Alpino 'Rezia' Parco Nazionale dello Stelvio", "longitude": 10.3780623, "country": "ITALY"}, {"latitude": 44.837789, "city": "Bordeaux", "name": "Jardin Botanique de Bordeaux Terrasse du Jardin Public", "longitude": -0.57918, "country": "FRANCE"}, {"latitude": 49.182863, "city": "Caen", "name": "Jardin Botanique de la Ville et de l'Universit\u00e9", "longitude": -0.370679, "country": "FRANCE"}, {"latitude": 45.77722199999999, "city": "Clermont-Ferrand", "name": "Jardin Botanique Service des Espaces Verts Ville de Clermont-Ferrand", "longitude": 3.087025, "country": "FRANCE"}, {"latitude": 47.2849276, "city": "DIJON - Mairie", "name": "Jardin Botanique de la Ville Mus\u00e9e d'Histoire Naturelle", "longitude": 5.0625996, "country": "FRANCE"}, {"latitude": 45.83361900000001, "city": "Limoges Cedex", "name": "Jardin Botanique Mairie de Limoges direction des espaces verts", "longitude": 1.261105, "country": "FRANCE"}, {"latitude": 45.764043, "city": "LYON cedex 01", "name": "Mairie de Lyon c/o Jardin Botanique ", "longitude": 4.835659, "country": "FRANCE"}, {"latitude": 58.3708837, "city": "Tartu", "name": "Botanical Garden Tartu University ", "longitude": 26.7148282, "country": "ESTONIA"}, {"latitude": 42.0425, "city": "Lama die Peligni (Chieti)", "name": "Gardino Botanico Michele Tenore ", "longitude": 14.1872037, "country": "ITALY"}, {"latitude": 55.0392304, "city": "Novosibirsk", "name": "Hortus Botanicus Sibiricus Centralis  ", "longitude": 82.9278181, "country": "RUSSIA"}, {"latitude": 57.9971695, "city": "Perm", "name": "Perm State University Botanical Garden  ", "longitude": 56.2352792, "country": "RUSSIA"}, {"latitude": 40.8400969, "city": "Napoli", "name": "Orto Botanico dell Universit\u00e1 degli Studi di Napoli \"Federico II\"", "longitude": 14.2516357, "country": "ITALY"}, {"latitude": 43.3186614, "city": "Siena", "name": "Orto Botanico, Museo Botanico Dip. Sc. Amb. \"G. Sarfatti\" Universit\u00e0 degli Studi di Siena", "longitude": 11.3305135, "country": "ITALY"}, {"latitude": 45.0705621, "city": "Torino", "name": "Giardino Botanico Alpino Chanousia c/o Dipart. Biologia Vegetale dell' Universita di Torino", "longitude": 7.6866186, "country": "ITALY"}, {"latitude": 45.04, "city": "Trana-Torino", "name": "Gardino Botanico REA via Giaveno, 40 franz. San Bernardino", "longitude": 7.422981399999999, "country": "ITALY"}, {"latitude": 46.2537003, "city": "Szeged", "name": "Hortus Botanicus Universitatis ", "longitude": 20.146029, "country": "HUNGARY"}, {"latitude": 45.7927367, "city": "Courmayeur (Aosta)", "name": "Giardino Botanico Alpino Saussurea c/o Funivie Monte Bianco La Palud ", "longitude": 6.9717103, "country": "ITALY"}, {"latitude": 44.04590990000001, "city": "Pyatigorsk, Energetik", "name": "Perkalsky Arboretum  ", "longitude": 43.0587388, "country": "RUSSIA"}, {"latitude": 37.5024825, "city": "Catania", "name": "Luca Gelardi The Ethnobotanic Garden ", "longitude": 15.0878345, "country": "ITALY"}, {"latitude": 41.9948518, "city": "Anversa degli Abruzzi - AQ", "name": "Gardino Botanico Gole del Sagittario ", "longitude": 13.8048518, "country": "ITALY"}, {"latitude": 44.2348518, "city": "Terrarossa (MS)", "name": "Orto Botanico Loc. Frignoli Segreteria Legambiente Onlus", "longitude": 9.9609629, "country": "ITALY"}, {"latitude": 42.32548140000001, "city": "Barisciano (AQ)", "name": "Centro Ricerche, Floristiche dell'Appennino Parco Nazionale del Gran Sasso Universit\u00e0 degli studi di Camerino", "longitude": 13.5934629, "country": "ITALY"}, {"latitude": 42.3517929, "city": "Chieti", "name": "Giardino dei Semplici Universit\u00e0 degli Studi \u201cG. d\u2019Annunzio\u201d Facolt\u00e0 di Farmacia", "longitude": 14.1671511, "country": "ITALY"}, {"latitude": 42.35069780000001, "city": "L'Aquila", "name": "Orto Botanico di Collemaggio Circuito di Collemaggio, Amministrazione Provinciale dell'Aquila", "longitude": 13.3999338, "country": "ITALY"}, {"latitude": 35.6961111, "city": "Teheran", "name": "Botanical Garden of Iran Research Institute of Forests & Rangelands ", "longitude": 51.4230556, "country": "IRAN"}, {"latitude": 43.72474690000001, "city": "Urbino", "name": "Orto Botanico dell' Universita \"Carlo Bo\" Pierina Scaramella", "longitude": 12.6366847, "country": "ITALY"}, {"latitude": 43.1306915, "city": "Vladivostok", "name": "Hortus Botanicus Russian Academy of Sciences Botanical Garden - Institute FEBRAS", "longitude": 131.923828, "country": "RUSSIA"}, {"latitude": 48.7771056, "city": "Stuttgart", "name": "Biologisches Institut der Universit\u00e4t Stuttgart Botanischer Garten", "longitude": 9.1807688, "country": "Deutschland"}, {"latitude": 37.5024825, "city": "Catania", "name": "Dipartimento di Botanica Universita \u00b4di Catania Orto Botanico", "longitude": 15.0878345, "country": "ITALY"}, {"latitude": 45.6082525, "city": "Cogne (Aosta)", "name": "Parco Nazionale Gran Paradiso Giardino Botanico Alpino Paradisia ", "longitude": 7.356132199999998, "country": "ITALY"}, {"latitude": 44.8378378, "city": "Ferrara", "name": "Orto Botanico Universit\u00e0 degli Studi di Ferrara ", "longitude": 11.6203994, "country": "ITALY"}, {"latitude": 43.7687324, "city": "Firenze", "name": "Orto Botanico Universit\u00e1 Giardino dei Semplici ", "longitude": 11.2569013, "country": "ITALY"}, {"latitude": 44.427269, "city": "Genova-Pegli", "name": "Giardino Botanico Clelia Durazzo Grimaldi Comune di Genova, Servizio Giardini e Foreste", "longitude": 8.8086006, "country": "ITALY"}, {"latitude": 43.8430139, "city": "Lucca", "name": "Orto Botanico Communale  ", "longitude": 10.507994, "country": "ITALY"}, {"latitude": 56.0012512, "city": "Krasnoyarsk", "name": "V.N.Sukacherv Institute of Forest SB RAS  ", "longitude": 92.88558959999999, "country": "RUSSIA"}, {"latitude": 56.8579292, "city": "Tver", "name": "Botanic Garden of Tver State University ", "longitude": 35.9238282, "country": "RUSSIA"}, {"latitude": 0, "city": "Gornotaietchna", "name": "Gornotaietchna Station nom. V.L. Komarovii Arboretum Ussuriysk, Primorskiy District.", "longitude": 0, "country": "RUSSIA"}, {"latitude": 55.796538, "city": "Kazan", "name": "Hortus Zoobotanicus Kazanensis Tatarstan, Rossia ", "longitude": 49.1082, "country": "RUSSIA"}, {"latitude": 63.7534192, "city": "Karelia", "name": "Botanic Garden Petrozavodsk State University Petrozavodsk Karelia", "longitude": 33.9792291, "country": "RUSSIA"}, {"latitude": 56.46398929999999, "city": "Tomsk", "name": "Siberian Botanical Garden Tomsk State University ", "longitude": 84.9625475, "country": "RUSSIA"}, {"latitude": 56.750336, "city": "Ekaterinburg, K-83", "name": "Hortus Botanicus Universitatis Uralensis Ural State University Botanical Garden Ural Division of Academy of Science", "longitude": 60.80431399999999, "country": "RUSSIA"}, {"latitude": 0, "city": "Opp. Kirovsk-6 / Reg. Murmanensis", "name": "Hortus Botanicus Arcto-Alpinus AC.SC.Rossicum", "longitude": 0, "country": "RUSSIA"}, {"latitude": 56.8426093, "city": "Ischewsk", "name": "Hortus Botanicus Udmurtische Staatliche Universit\u00e4t ", "longitude": 53.2244492, "country": "RUSSIA"}, {"latitude": 47.95325829999999, "city": "Ny\u00edregyh\u00e1za-S\u00f3st\u00f3f\u00fcrd\u0151", "name": "Ny\u00edregyh\u00e1zi \u00c1llatpark Kht Ny\u00edregyh\u00e1za S\u00f3st\u00f3 Zoo ", "longitude": 21.7264647, "country": "HUNGARY"}, {"latitude": 47.2331886, "city": "Rostov on Don", "name": "Hortus Botanicus Botanical Garden SFU Botanisheskiy spusk 7", "longitude": 39.7150003, "country": "RUSSIA"}, {"latitude": 43.4257091, "city": "Balchik", "name": "University Botanical Gardens Balchik ", "longitude": 28.1628005, "country": "BULGARIA"}, {"latitude": 55.675918, "city": "Frederiksberg C", "name": "Green Support Services, Horticultural Gardens University of Copenhagen Faculty of Life Sciences", "longitude": 12.5431115, "country": "DANMARK"}, {"latitude": 47.070714, "city": "Graz", "name": "Ing. Thomas Ster \u00d6sterreichische Gartenbaugesellschaft Landesgruppe Steiermark", "longitude": 15.439504, "country": "\u00d6STERREICH"}, {"latitude": -34.6084175, "city": "Capital Federal", "name": "Jard\u00edn Bot\u00e1nico Lucien Hauman Facultad de Agronom\u00eda Universidad Nacional de Buenos Aires", "longitude": -58.37316130000001, "country": "ARGENTINA"}, {"latitude": 51.2166667, "city": "Beveren", "name": "Arboretum Hof ter Saksen Gemeente Beveren ", "longitude": 4.25, "country": "BELGIUM"}, {"latitude": 51.05665, "city": "Gent", "name": "Plantentuin van de Universiteit ", "longitude": 3.72, "country": "BELGIUM"}, {"latitude": 51.38298, "city": "Kalmthout", "name": "Arboretum Kalmthout v. z. w.  ", "longitude": 4.47518, "country": "BELGIUM"}, {"latitude": 47.80949, "city": "Salzburg", "name": "Botanischer Garten der Universit\u00e4t Salzburg ", "longitude": 13.05501, "country": "\u00d6STERREICH"}, {"latitude": 51.22126, "city": "Deurne", "name": "Rivierenhof Diensthoofd ", "longitude": 4.46607, "country": "BELGIUM"}, {"latitude": 48.30694, "city": "Linz", "name": "Botanischer Garten der Stadt Linz Samentausch", "longitude": 14.28583, "country": "\u00d6STERREICH"}, {"latitude": 53.5289515, "city": "Edmonton /Alberta T6G 2E1", "name": "Barry Greig Devonian Botanic Garden University of Alberta ", "longitude": -113.5249505, "country": "CANADA"}, {"latitude": 45.5565939, "city": "Montr\u00e9al  (Qu\u00e9bec)H1X 2B2", "name": "Jardin botanique de Montr\u00e9al Index Seminum ", "longitude": -73.55455599999999, "country": "CANADA"}, {"latitude": 49.262075, "city": "Vancouver /B.C. V6T 1Z4", "name": "Botanical Garden & Center for Plant Research University of Brit. Columbia ", "longitude": -123.252055, "country": "CANADA"}, {"latitude": 45.5072442, "city": "51 Cantley, QC J8V 3B2", "name": "Parc de la Dauphinelle a/s M Larochelle ", "longitude": -75.7613539, "country": "CANADA"}, {"latitude": 47.535097, "city": "Basel-Br\u00fcglingen", "name": "Botanischer Garten Merian Park ", "longitude": 7.6147871, "country": "SCHWEIZ"}, {"latitude": 46.9479222, "city": "Bern", "name": "Botanischer Garten der Universit\u00e4t ", "longitude": 7.444608499999999, "country": "SCHWEIZ"}, {"latitude": 46.2378, "city": "Chamb\u00e9sy /Geneve", "name": "Conservatoire et Jardin Botanique Ville de Gen\u00e8ve", "longitude": 6.141249999999999, "country": "SCHWEIZ"}, {"latitude": 50.9529168, "city": "Meise", "name": "Jardin Botanique National Ministre des Classes moyennes et de l'Agriculture", "longitude": 4.3115653, "country": "BELGIUM"}, {"latitude": 49.7474848, "city": "Plzen", "name": "Zoolog.& Bot. Garden of Plzen Zoologick\u00e1 a botanick\u00e1 zahrada mesta Plzne", "longitude": 13.3776036, "country": "CZECH REPUBLIC"}, {"latitude": 46.21833880000001, "city": "LES PLANS / BEX (Suisse)", "name": "Jardin alpin de Pont de Nant La Thomasia ", "longitude": 6.965241, "country": "SCHWEIZ"}, {"latitude": 39.9557666, "city": "Beijing 100093", "name": "Beijing Botanical Garden (North Garden)", "longitude": 116.21094, "country": "PEOPLE'S REP. OF CHINA"}, {"latitude": 23.1763594, "city": "Guangzhou, Guangdong 510650", "name": "South China Botanical Garden Chinese Academy of Science ", "longitude": 113.3484296, "country": "PEOPLE'S REP. OF CHINA"}, {"latitude": 29.671775, "city": "Lushan, Jiangxi Prov.", "name": "Lushan Botanical Garden Hanpokuo ", "longitude": 115.989212, "country": "PEOPLE'S REP. OF CHINA"}, {"latitude": 31.230393, "city": "Shanghai", "name": "The Shanghai Botanic Garden  ", "longitude": 121.473704, "country": "PEOPLE'S REP. OF CHINA"}, {"latitude": 30.274089, "city": "Hangzhou Zhejiang", "name": "Hangzhou Botanical Garden  ", "longitude": 120.155069, "country": "PEOPLE'S REP. OF CHINA"}, {"latitude": 48.2081743, "city": "Wien", "name": "Botanischer Garten der Universit\u00e4t Wien ", "longitude": 16.3738189, "country": "\u00d6STERREICH"}, {"latitude": 49.1909804, "city": "Brno", "name": "Botanick\u00e1 zahrada Masarykovy univerzity P\u0159\u00edrodov\u011bdeck\u00e9 fakulty", "longitude": 16.6115347, "country": "CZECH REPUBLIC"}, {"latitude": 46.99297929999999, "city": "Neuch\u00e2tel", "name": "Jardin Botanique de l'Universit\u00e9 ", "longitude": 6.931932499999999, "country": "SCHWEIZ"}, {"latitude": 50.0878114, "city": "Praha", "name": "Botanicka zahrada The Charles University in Prague ", "longitude": 14.4204598, "country": "CZECH REPUBLIC"}, {"latitude": 49.47150800000001, "city": "Prostejov", "name": "SUCCULENTARUM PLANTARUM COLLECTIO UNIVERSALIS Phil. Dr. Adolf Tomandl", "longitude": 17.1124191, "country": "CZECH REPUBLIC"}, {"latitude": 50.001419, "city": "Pruhonice", "name": "Silva Tarouca Research Institute for Landscape and Ornamental Gardening Dendrologick\u00e1 zaharda", "longitude": 14.5607866, "country": "CZECH REPUBLIC"}, {"latitude": 50.001419, "city": "Pruhonice", "name": "Institute of Botany Academy of Sciences of the Czech Republic", "longitude": 14.5607866, "country": "CZECH REPUBLIC"}, {"latitude": 49.9387627, "city": "Opava", "name": "Arboretum Novy Dvur Slezek\u00e9 zemsk\u00e9 muzeum Opave ", "longitude": 17.9024582, "country": "CZECH REPUBLIC"}, {"latitude": 49.4141617, "city": "T\u00e1bor", "name": "Botanicka Zahrada Scholae Agriculturae ", "longitude": 14.6577921, "country": "CZECH REPUBLIC"}, {"latitude": 47.2692124, "city": "Innsbruck", "name": "Botanischer Garten und Alpengarten Universit\u00e4t Innsbruck", "longitude": 11.4041024, "country": "\u00d6STERREICH"}, {"latitude": 45.814912, "city": "Zagreb", "name": "Botanicki Vrt Faculty of Science ", "longitude": 15.9785145, "country": "CROATIA"}, {"latitude": 50.7066974, "city": "Oberhof", "name": "Rennsteiggarten Oberhof Bot. Garten f\u00fcr Gebirgsflora", "longitude": 10.724719, "country": "Deutschland"}, {"latitude": 53.553813, "city": "Hamburg", "name": "Botanischer Garten Universit\u00e4t Hamburg ", "longitude": 9.991586, "country": "Deutschland"}, {"latitude": 49.4018997, "city": "Heidelberg", "name": "Botanischer Garten der Ruprecht-Karls-Universit\u00e4t ", "longitude": 8.680285, "country": "Deutschland"}, {"latitude": 50.9269994, "city": "Jena", "name": "Botanischer Garten der Friedrich-Schiller-Univ. ", "longitude": 11.5870113, "country": "Deutschland"}, {"latitude": 49.0080848, "city": "Karlsruhe", "name": "Botanischer Garten Universit\u00e4t (TH) Fridericiana ", "longitude": 8.4037563, "country": "Deutschland"}, {"latitude": 51.3317042, "city": "Krefeld", "name": "Botanischer Garten Fachbereich Gr\u00fcnfl\u00e4chen ", "longitude": 6.559353900000001, "country": "Deutschland"}, {"latitude": 51.33967310000001, "city": "Leipzig", "name": "Botanischer Garten der Universit\u00e4t Leipzig ", "longitude": 12.3713639, "country": "Deutschland"}, {"latitude": 46.8016663, "city": "Fribourg", "name": "Jardin Botanique de l'Universit\u00e9 de Fribourg ", "longitude": 7.145568300000001, "country": "SCHWEIZ"}, {"latitude": 51.96471099999999, "city": "M\u00fcnster", "name": "Botanischer Garten internat. Samentausch Westf. Wilhelms-Universit\u00e4t", "longitude": 7.628496, "country": "Deutschland"}, {"latitude": 51.532605, "city": "G\u00f6ttingen", "name": "Neuer Botanischer Garten der Universit\u00e4t ", "longitude": 9.928442000000002, "country": "Deutschland"}, {"latitude": 53.1367194, "city": "Oldenburg", "name": "Botanischer Garten der Univers. Oldenburg ", "longitude": 8.2165357, "country": "Deutschland"}, {"latitude": 48.7771056, "city": "Stuttgart", "name": "Universit\u00e4t Hohenheim Botanischer Garten 211 ", "longitude": 9.1807688, "country": "Deutschland"}, {"latitude": 48.522904, "city": "T\u00fcbingen", "name": "Botanischer Garten der Universit\u00e4t T\u00fcbingen ", "longitude": 9.052097999999999, "country": "Deutschland"}, {"latitude": 48.399623, "city": "Ulm", "name": "Botanischer Garten Universit\u00e4t Ulm Oberer Eselsberg", "longitude": 9.996607, "country": "Deutschland"}, {"latitude": 49.552138, "city": "Weinheim", "name": "Schau- und Sichtungsgarten Hermannshof e.V. ", "longitude": 8.6657315, "country": "Deutschland"}, {"latitude": 51.3394273, "city": "Witzenhausen", "name": "Gew\u00e4chshaus f. tropische Nutzpflanzen Inst.f.Nutzpflanzenk. FB 11", "longitude": 9.8564939, "country": "Deutschland"}, {"latitude": 51.255871, "city": "Wuppertal", "name": "Botanischer Garten der Stadt Wuppertal ", "longitude": 7.149985, "country": "Deutschland"}, {"latitude": 50.814788, "city": "Marburg", "name": "Botanischer Garten der Philipps-Universit\u00e4t ", "longitude": 8.769238999999999, "country": "Deutschland"}, {"latitude": 51.0509912, "city": "Dresden", "name": "Botanischer Garten der Technischen Universit\u00e4t ", "longitude": 13.7336335, "country": "Deutschland"}, {"latitude": 47.52997389999999, "city": "Debrecen", "name": "Kossuth Lajos Tudomanyegyetem Botanikus Kert ", "longitude": 21.6393571, "country": "HUNGARY"}, {"latitude": 49.5953879, "city": "Olomouc", "name": "Botanical Garden Palacky University ", "longitude": 17.2518721, "country": "CZECH REPUBLIC"}, {"latitude": 50.6399608, "city": "Teplice", "name": "Botanicka zahrada Teplice  ", "longitude": 13.8245447, "country": "CZECH REPUBLIC"}, {"latitude": 49.9415577, "city": "Bayreuth", "name": "\u00d6kolog. Botanischer Garten Universit\u00e4t Bayreuth ", "longitude": 11.5710306, "country": "Deutschland"}, {"latitude": 52.5234051, "city": "Berlin", "name": "Botanischer Garten & Museum  ", "longitude": 13.4113999, "country": "Deutschland"}, {"latitude": 51.482901, "city": "Bochum", "name": "Botanischer Garten der Ruhr-Universit\u00e4t Bochum ", "longitude": 7.211810000000001, "country": "Deutschland"}, {"latitude": 52.2641478, "city": "Braunschweig", "name": "Botanischer Garten der Technischen Universit\u00e4t Postfach 3329", "longitude": 10.5263803, "country": "Deutschland"}, {"latitude": 51.482166, "city": "Halle / Saale", "name": "Botanischer Garten der Martin-Luther-Universit\u00e4t ", "longitude": 11.965814, "country": "Deutschland"}, {"latitude": 49.8724245, "city": "Darmstadt", "name": "Botanischer Garten der Technischen Hochschule ", "longitude": 8.6508574, "country": "Deutschland"}, {"latitude": 51.532605, "city": "G\u00f6ttingen", "name": "Forstbotanischer Garten und Arboretum der Universit\u00e4t G\u00f6ttingen", "longitude": 9.928442000000002, "country": "Deutschland"}, {"latitude": 49.599937, "city": "Erlangen", "name": "Botanischer Garten der Universit\u00e4t Erlangen-N\u00fcrnberg", "longitude": 11.0063, "country": "Deutschland"}, {"latitude": 51.3139843, "city": "Surrey GU23 6QB", "name": "The Royal Horticultural Society's Garden  ", "longitude": -0.4728724, "country": "United Kingdom"}, {"latitude": 32.1574351, "city": "Batumi, Makhinjauri,", "name": "Batumin Botanical Garden Hortus Botanicus Batumensis ", "longitude": -82.90712300000001, "country": "Republic of Georgia"}, {"latitude": 41.7107665, "city": "Tbilisi (Tibilisi)", "name": "Tbilisi Botanical Garden  ", "longitude": 44.795562, "country": "Republic of Georgia"}, {"latitude": 50.58375299999999, "city": "Gie\u00dfen", "name": "Botanischer Garten der Justus-Liebig-Universit\u00e4t ", "longitude": 8.6777412, "country": "Deutschland"}, {"latitude": 51.532605, "city": "G\u00f6ttingen", "name": "Botanischer Garten  ", "longitude": 9.928442000000002, "country": "Deutschland"}, {"latitude": 46.5199617, "city": "Lausanne", "name": "Jardin Botanique de Lausanne  ", "longitude": 6.633597099999999, "country": "SCHWEIZ"}, {"latitude": 50.832503, "city": "Chemnitz", "name": "Stadt Chemnitz Gr\u00fcnfl\u00e4chenamt, Amt 67 Botanischer Garten", "longitude": 12.924694, "country": "Deutschland"}, {"latitude": 46.777248, "city": "Cluj - Napoca", "name": "Gardina Agrobotanica Universitatea de Stiinte Agricole Si Medicina Veterinara", "longitude": 23.59989, "country": "ROMANIA"}, {"latitude": 63.4305149, "city": "Trondheim", "name": "University of Trondheim Ringve botanical garden ", "longitude": 10.3950528, "country": "NORWAY"}, {"latitude": 53.12348040000001, "city": "Bydgoszcz", "name": "Instytut Hodowli i Aklimatyzacji Roslin - Ogrod Botaniczny ", "longitude": 18.0084378, "country": "POLAND"}, {"latitude": 38.70693199999999, "city": "Lisboa", "name": "Jardim Botanico da Ajuda Instituto Superior de Agronomia ", "longitude": -9.135632099999999, "country": "PORTUGAL"}, {"latitude": 41.149968, "city": "Porto", "name": "Universidade do Porto, Departamento de Biologia Faculdade de Ci\u00eancias Edif\u00edcio FC4 Dr. Goncalo Sampaio", "longitude": -8.6102426, "country": "PORTUGAL"}, {"latitude": 38.70693199999999, "city": "Lisboa", "name": "Banco de Sementes Dep. de Proteccao das Plantas e de Fitoecologica Inst. Superior de Agronomia", "longitude": -9.135632099999999, "country": "PORTUGAL"}, {"latitude": 48.1483765, "city": "Bratislava", "name": "Hortus Botanicus Universitatis Comenianae ", "longitude": 17.1073105, "country": "SLOVAKIA"}, {"latitude": 48.72099559999999, "city": "Kosice", "name": "Botanicka Zahrada Universitatis P.J.Safarikianae ", "longitude": 21.2577477, "country": "SLOVAKIA"}, {"latitude": 48.3098916, "city": "Nitra", "name": "Botanical Garden of Slovak Agricultural University ", "longitude": 18.0858758, "country": "SLOVAKIA"}, {"latitude": 51.92421599999999, "city": "Rotterdam", "name": "Botanische tuin Kralingen  ", "longitude": 4.481776, "country": "NETHERLANDS"}, {"latitude": 37.4125799, "city": "Gyeonggi-do, 430-012", "name": "The Arboretum Coll. of Agriculture & Life Sciences Seoul National University", "longitude": 126.9245463, "country": "Republic of Korea"}, {"latitude": 48.5758623, "city": "Zvolen", "name": "Department of Phytology Faculty of Forestry Technical University in Zvolen", "longitude": 19.1256291, "country": "SLOVAKIA"}, {"latitude": 50.06465009999999, "city": "Krak\u00f3w", "name": "Hortus Botanicus Universitatis Jagellonicae ", "longitude": 19.9449799, "country": "POLAND"}, {"latitude": 52.0901422, "city": "Utrecht", "name": "Utrecht University Botanic Gardens P.O.Box 80.162", "longitude": 5.109664899999999, "country": "NETHERLANDS"}, {"latitude": 52.247896, "city": "Warszawa 76", "name": "The Botanical Garden - Center for Biological Diversity Conservation of The Polish Academy of Sciences", "longitude": 21.0135456, "country": "POLAND"}, {"latitude": 50.8659457, "city": "Kerkrade", "name": "Stichting Botanische Tuin Kerkrade ", "longitude": 6.0705486, "country": "NETHERLANDS"}, {"latitude": 52.009507, "city": "Delft", "name": "Botanic Garden Delft University of Technology Burger's Zoo, Arnhem", "longitude": 4.360514999999999, "country": "NETHERLANDS"}, {"latitude": 50.0529506, "city": "Kiev Region", "name": "Dendrological Park 'Alexandria' NAS of Ukraine", "longitude": 30.7667133, "country": "UKRAINA"}, {"latitude": 52.3702157, "city": "Amsterdam", "name": "Hortus Botanicus Amsterdam scientific keeper ", "longitude": 4.895167900000001, "country": "NETHERLANDS"}, {"latitude": 52.632281, "city": "Alkmaar", "name": "VSM Geneesmiddelen BV T.a.v. Afdeling Tuin Postbus 9321", "longitude": 4.750806000000001, "country": "NETHERLANDS"}, {"latitude": -45.8787605, "city": "Dunedin/South Island", "name": "Botanic Garden Seed Exchange Dunedin City Council", "longitude": 170.5027976, "country": "NEW ZEALAND"}, {"latitude": 50.4501, "city": "Kiev", "name": "Hortus Botanicus Fominianus Universitatis Kyiviensis", "longitude": 30.5234, "country": "UKRAINA"}, {"latitude": 58.9699756, "city": "Stavanger", "name": "Stavanger Botanic Garden and Rogaland Arboretum ", "longitude": 5.7331073, "country": "NORWAY"}, {"latitude": 48.3102682, "city": "Slepcany", "name": "Arboretum Mlynany Slovak Akademy of Sciences Institutum Dendrobiologiae", "longitude": 18.3376046, "country": "SLOVAKIA"}, {"latitude": 59.8581435, "city": "Uppsala", "name": "Botanical Garden Uppsala University ", "longitude": 17.6445858, "country": "SWEDEN"}, {"latitude": 54.7, "city": "Kaliningrad", "name": "Hortus Botanicus Universitatis Lesnaja Immanuil Kant State University", "longitude": 20.5, "country": "RUSSIA"}, {"latitude": 45.76643, "city": "Simeria  jud. Hunedoara", "name": "Arboretumul Simeria  ", "longitude": 22.920679, "country": "ROMANIA"}, {"latitude": 47.2583333, "city": "Jibou-Salaj", "name": "Gradina Botanica Jibou Centrul de Cercetari Biolog. ", "longitude": 23.2583333, "country": "ROMANIA"}, {"latitude": 47.1569444, "city": "Iasi", "name": "GR\u0102DINA BOTANIC\u0102 \u201eAnastasie F\u0103tu\u201d a Universitatea 'Al. I. Cuza'", "longitude": 27.5902778, "country": "ROMANIA"}, {"latitude": 55.9967631, "city": "Moskva D-317", "name": "Botanical Garden of Officinal Plants Moscow Medical Institute", "longitude": 37.2154196, "country": "RUSSIA"}, {"latitude": 46.777248, "city": "Cluj-Napoca", "name": "Gradina Botanica Univ. \u201eBabes-Bolyai\" Cluj-Napoca Alexandru Borza", "longitude": 23.59989, "country": "ROMANIA"}, {"latitude": 44.43771100000001, "city": "Bucuresti", "name": "Gradina Botanica a Universitatii din Bucuresti D.Brandza", "longitude": 26.097367, "country": "ROMANIA"}, {"latitude": 56.32991699999999, "city": "Nizhni Novgorod", "name": "Hortus Botanicus UNIVERSITY OF NIZHNI NOVGOROD ", "longitude": 44.00919200000001, "country": "RUSSIA"}, {"latitude": 54.35202520000001, "city": "Gdansk", "name": "Ogrod Roslin Leczniczych AMG GDA\u0143SKI UNIWERSYTET MEDYCZNY WYDZIA\u0141 FARMACEUTYCZNY", "longitude": 18.6466384, "country": "POLAND"}, {"latitude": 52.6782617, "city": "Ciechanowiec", "name": "Muzeum Rolnictwa im Ks.K.Kluka ", "longitude": 22.4981661, "country": "POLAND"}, {"latitude": 49.299181, "city": "Zakopane", "name": "Montain Botanical Garden &  Tatra Field Station Institute of Nature Conservation Polish Academy of Sciences", "longitude": 19.9495621, "country": "POLAND"}, {"latitude": 51.92421599999999, "city": "Rotterdam", "name": "Koninkl. Rotterdam Diergarde Blijdorp Botanical department Postbus 532", "longitude": 4.481776, "country": "NETHERLANDS"}, {"latitude": 51.1078852, "city": "Wroclaw", "name": "Ogr\u00f3d Botaniczny Uniwersytetu Wroclawskiego ", "longitude": 17.0385376, "country": "POLAND"}, {"latitude": 52.2296756, "city": "Warszawa", "name": "Ogr\u00f3d Botaniczny Uniwersytetu Warszawskiego ", "longitude": 21.0122287, "country": "POLAND"}, {"latitude": 49.9906321, "city": "Rog\u00f3w", "name": "Warsaw University of Life Sciences Arboretum ", "longitude": 18.3508764, "country": "POLAND"}, {"latitude": 62.60098889999999, "city": "Joensuu", "name": "Botanical Garden Univ. of Joensuu P.O.Box 111", "longitude": 29.763534, "country": "FINLAND"}, {"latitude": 65.012655, "city": "Oulu", "name": "Botanical Gardens University of Oulu ", "longitude": 25.471386, "country": "FINLAND"}, {"latitude": 49.7838623, "city": "Przemysl", "name": "Arboretum Zaklad Fizjografii W Bolestraszyce ", "longitude": 22.7677908, "country": "POLAND"}, {"latitude": 52.3665379, "city": "Plewiska", "name": "Ogrod Roslin Leczniczych Instytutu Wlokien Naturalnych i Roslin Zielarskich", "longitude": 16.809594, "country": "POLAND"}, {"latitude": 60.4514583, "city": "Turku", "name": "Botanical Garden University of Turku ", "longitude": 22.2688319, "country": "FINLAND"}, {"latitude": 60.16981249999999, "city": "Helsinki", "name": "Botanical Garden University of Helsinki ", "longitude": 24.9382401, "country": "FINLAND"}, {"latitude": 51.8969763, "city": "Lublin 63", "name": "Ogrod Botaniczny Uniwersytet Marii Curie Sklodowskiej", "longitude": 22.3988554, "country": "POLAND"}, {"latitude": 59.33278809999999, "city": "Stockholm", "name": "Bergius Botanic Garden  ", "longitude": 18.0644881, "country": "SWEDEN"}, {"latitude": 56.9770233, "city": "Salaspils - 1", "name": "Laboratorium Dendroflorae Hortus Botanicus Nationalis", "longitude": 23.8944737, "country": "LATVIA"}, {"latitude": 47.6518674, "city": "Seattle, WA 98195-1800", "name": "Seed Curator Medicinal Herb Garden University of Washington", "longitude": -122.3096461, "country": "U.S.A."}, {"latitude": 41.801141, "city": "Lisle, IL. 60532- 1293", "name": "The Morton Arboretum seed exchange ", "longitude": -88.0747875, "country": "U.S.A."}, {"latitude": 39.7271021, "city": "Denver /Colorado 80206-3799", "name": "Denver Botanic Gardens Mike Bone ", "longitude": -104.9564084, "country": "U.S.A."}, {"latitude": 49.61162100000001, "city": "Luxembourg", "name": "Mus\u00e9e National d'Histoire Naturelle Arboretum Kirchberg ", "longitude": 6.1319346, "country": "LUXEMBURG"}, {"latitude": 54.557812, "city": "MARIJAMPOL\u0116", "name": "Station of Nature Research and Environmental Education ", "longitude": 23.3498124, "country": "LITHUANIA"}, {"latitude": 43.73841760000001, "city": "Monaco Cedex", "name": "Jardin Exotique de Monaco  ", "longitude": 7.424615799999999, "country": "MONACO"}, {"latitude": 54.8968721, "city": "Kaunas", "name": "Kaunas Botanical Garden of Vytautas Magnus University ", "longitude": 23.8924264, "country": "LITHUANIA"}, {"latitude": 47.6518674, "city": "Seattle /Washington 98195-8010", "name": "Washington Park Arboretum University of Washington Botanic Gardens ", "longitude": -122.3096461, "country": "U.S.A."}, {"latitude": 34.9723445, "city": "Kyoto, 607-8182", "name": "The Nippon Shinyaku Institute for Botanical Research Sakanotsuji-cho 39, Oyake,", "longitude": 135.8204794, "country": "JAPAN"}, {"latitude": 42.31907260000001, "city": "Northampton / Massachusetts 01063", "name": "Botanic Garden Smith College ", "longitude": -72.6395091, "country": "U.S.A."}, {"latitude": 56.9465363, "city": "Riga", "name": "Botanical Garden of the University of Latvia ", "longitude": 24.1048503, "country": "LATVIA"}, {"latitude": 40.0581205, "city": "Newark /Ohio 43056-9380", "name": "The Dawes Arboretum Mr. Gregory A. Payton, Index Seminum ", "longitude": -82.4012642, "country": "U.S.A."}, {"latitude": 35.1570744, "city": "Nagoya-shi 464-0804", "name": "Higashiyama Botanical Gardens City of Nagoya 3-70, Higashiyamamoto-machi", "longitude": 136.9724568, "country": "JAPAN"}, {"latitude": 60.25985419999999, "city": "Hjellestad", "name": "Arboretum & Botanical Garden University of Bergen ARBOHA", "longitude": 5.2513873, "country": "NORWAY"}, {"latitude": 42.73367229999999, "city": "East Lansing, MI 48824-1047", "name": "W.J. Beal Botanical Garden Michigan State University ", "longitude": -84.46550239999999, "country": "U.S.A."}, {"latitude": 64.13533799999999, "city": "Reykjav\u00edk", "name": "Horticultural Society of Iceland Gar\u00f0yrkjuf\u00e9lag \u00edslands", "longitude": -21.89521, "country": "ICELAND"}, {"latitude": 34.3832822, "city": "Hiroshima 731-5156", "name": "Hiroshima Botanical Garden  495, Kurashige 3-chome,", "longitude": 132.3527239, "country": "JAPAN"}, {"latitude": 32.066157, "city": "Tel Aviv 69978", "name": "Botanical Garden Tel Aviv University The George S.Wise Fac. of Life Sciences Ramat Aviv", "longitude": 34.777821, "country": "ISRAEL"}, {"latitude": 59.9138688, "city": "Oslo", "name": "Botanical Garden University of Oslo Natural History Museum", "longitude": 10.7522454, "country": "NORWAY"}, {"latitude": 40.6648278, "city": "Brooklyn /N.Y. 11225-1099", "name": "Brooklyn Botanic Garden Seed Index Herbarium", "longitude": -73.9565551, "country": "U.S.A."}, {"latitude": 47.02685899999999, "city": "Chisinau", "name": "Hortus Botanicus Gradina Botanica (I) a A.S.M. A ACADEMIEI DE \u015eTIIN\u0162E", "longitude": 28.841551, "country": "Republica Moldova"}, {"latitude": 31.768318, "city": "Jerusalem 91905", "name": "Hebrew University of Jerusalem Botanical Garden for the Flora of Israel", "longitude": 35.213711, "country": "ISRAEL"}, {"latitude": 51.490108, "city": "Duisburg (Hamborn)", "name": "Botanischer Garten Universit\u00e4t Duisburg-Essen ", "longitude": 6.790273999999999, "country": "Deutschland"}, {"latitude": -25.7510426, "city": "Pretoria 0002", "name": "Manie van der Schijff Botanical Garden Department of Botany", "longitude": 28.188329, "country": "SOUTH AFRICA"}, {"latitude": 55.755786, "city": "Moscow GSP-1", "name": "Botanical Garden Seed Department Lomonosov Moscow State University", "longitude": 37.617633, "country": "RUSSIA"}, {"latitude": 0, "city": "Heng-Chun Ping-Tung County, Taiwan 946, ROC", "name": "Hengchun Tropical Botanic Garden  ", "longitude": 0, "country": "PEOPLE'S REP. OF CHINA"}, {"latitude": 47.367347, "city": "Z\u00fcrich", "name": "St\u00e4dtische Sukkulenten-Sammlung Z\u00fcrich", "longitude": 8.5500025, "country": "SCHWEIZ"}, {"latitude": 47.367347, "city": "Z\u00fcrich", "name": "Botanischer Garten Universit\u00e4t Z\u00fcrich ", "longitude": 8.5500025, "country": "SCHWEIZ"}, {"latitude": 53.074981, "city": "Bremen", "name": "Botanischer Garten u. Rhododendronpark Stadtgr\u00fcn Bremen", "longitude": 8.807081, "country": "Deutschland"}, {"latitude": 49.1909804, "city": "Brno", "name": "Mendel University of Agriculture and Forestry Brno Botanical Gardens & Arboretum", "longitude": 16.6115347, "country": "CZECH REPUBLIC"}, {"latitude": 54.09720249999999, "city": "Greifswald", "name": "Botanischer Garten Ernst-Moritz-Arndt-Universit\u00e4t ", "longitude": 13.3880102, "country": "Deutschland"}, {"latitude": 50.7327045, "city": "Bonn", "name": "Botanische G\u00e4rten  ", "longitude": 7.0963113, "country": "Deutschland"}, {"latitude": 46.1666667, "city": "com. MACEA, jud. Arad", "name": "Gradina Botanica Macea Universitatea de Vest Vasile Goldis din Arad", "longitude": 21.3166667, "country": "ROMANIA"}, {"latitude": 52.0230618, "city": "Bielefeld", "name": "Universit\u00e4t Bielefeld Fakult\u00e4t f\u00fcr Biologie-G\u00e4rtnerei- Postfach 10 01 31", "longitude": 8.533072299999999, "country": "Deutschland"}, {"latitude": 1.3000149, "city": "Singapore 1025", "name": "Singapore Botanic Gardens Plant Introduction Unit National Park Board", "longitude": 103.8647243, "country": "REPUBLIC OF SINGAPORE"}, {"latitude": 52.5234051, "city": "Berlin", "name": "Humboldt-Universit\u00e4t zu Berlin Institut f. Biologie Sp\u00e4th-Arboretum", "longitude": 13.4113999, "country": "Deutschland"}, {"latitude": 49.1909804, "city": "Brno", "name": "Hortus Centralis Cultura Herbarum Medicarum Universitatis Masarykiana", "longitude": 16.6115347, "country": "CZECH REPUBLIC"}, {"latitude": 33.2541205, "city": "Sogwipo-city, Jeju-do", "name": "Botanical Garden Yeomiji 2484-1, Saekdal-dong,", "longitude": 126.560076, "country": "Republic of Korea"}, {"latitude": 64.5369264, "city": "Arkhangelsk", "name": "Dendrological Garden Arkhangelsk Forest and Northern Research Institute of Forestry", "longitude": 40.56557069999999, "country": "RUSSIA"}, {"latitude": 41.26666669999999, "city": "Tashkent", "name": "Hortus Botanicus F.N.Rusanovi Academy Scienes of Uzbekistan ", "longitude": 69.21666669999999, "country": "UZBEKISTAN"}, {"latitude": -33.0, "city": "Vina del Mar", "name": "Jardin Botanico Nacional  Camino el Olivar no 305 El Salto", "longitude": -71.5166667, "country": "CHILE"}, {"latitude": 48.2525363, "city": "Ettenheim", "name": "Gesellschaft der Staudenfreunde Gesch\u00e4ftsstelle Frau Evi Roth ", "longitude": 7.813285800000001, "country": "Deutschland"}, {"latitude": 47.9971865, "city": "Freiburg i.Br.", "name": "Botanischer Garten der Universit\u00e4t Freiburg im Breisgau", "longitude": 7.8537668, "country": "Deutschland"}, {"latitude": 50.1114451, "city": "Frankfurt am Main", "name": "Botanischer Garten der Universit\u00e4t ", "longitude": 8.680615399999999, "country": "Deutschland"}, {"latitude": 36.137741, "city": "", "name": "Gibraltar Botanical Gardens The Alameda ", "longitude": -5.345374, "country": "GIBRALTAR"}, {"latitude": 42.2583333, "city": "South Hadley / Massechusetts 01075-6440", "name": "Botanic Garden Mount Holyoke College ", "longitude": -72.575, "country": "U.S.A."}, {"latitude": 56.0468716, "city": "Helsingborg", "name": "Botanical Garden Fredriksdal sfriluftsmuseum Box 7123", "longitude": 12.6952855, "country": "SWEDEN"}, {"latitude": 55.7028541, "city": "Lund", "name": "Botanical Garden University of Lund ", "longitude": 13.1929125, "country": "SWEDEN"}, {"latitude": 51.22494289999999, "city": "D\u00fcsseldorf", "name": "Botanischer Garten der Heinrich-Heine-Universit\u00e4t ", "longitude": 6.775652399999999, "country": "Deutschland"}, {"latitude": 51.45793519999999, "city": "Essen", "name": "Grugapark Essen  ", "longitude": 7.0148281, "country": "Deutschland"}, {"latitude": 25.091075, "city": "Taipei, Taiwan", "name": "Seed Bank and Seed Laboratory Taiwan Forestry Research Institute Division of Taipei Botanical Garden", "longitude": 121.5598345, "country": "PEOPLE'S REP. OF CHINA"}, {"latitude": 55.7029435, "city": "Mosqua 276", "name": "Hortus Botanicus Principalis Academiae Scientiarum Rossicae ", "longitude": 37.5307094, "country": "RUSSIA"}, {"latitude": 47.8017384, "city": "Badenweiler", "name": "Badenweiler Thermen und Touristik GmbH Abt. 5.1. Kurpark", "longitude": 7.671850999999998, "country": "Deutschland"}, {"latitude": 55.5663825, "city": "Moskva M-216", "name": "Hortus Botanicus Instituti Plantarum Medicinalium et Aromaticarum NPO \u201eVILAR\"", "longitude": 37.6019301, "country": "RUSSIA"}, {"latitude": 32.060255, "city": "Nanjing/ Jiangsu", "name": "Nanjing Botanical Garden Mem. Sun Yat-sen ", "longitude": 118.796877, "country": "PEOPLE'S REP. OF CHINA"}, {"latitude": 37.6164453, "city": "Richmond VA 23228-4700", "name": "Lewis Ginter Botanic Gardens Horticulture Department ", "longitude": -77.4816693, "country": "U.S.A."}, {"latitude": 52.833935, "city": "Eberswalde", "name": "Forstbotanischer Garten Fachhochschule Eberswalde ", "longitude": 13.811756, "country": "Deutschland"}, {"latitude": 38.0700776, "city": "Renick / West Virginia 24966", "name": "North American Plant Preservation Council Barry Glick, Executive Director", "longitude": -80.38813329999999, "country": "U.S.A."}, {"latitude": 51.45793519999999, "city": "Essen", "name": "Botanischer Garten der Universit\u00e4t-GH-Essen ", "longitude": 7.0148281, "country": "Deutschland"}, {"latitude": 56.3342574, "city": "St Andrews /Fife. KY16 8RT, Scotland", "name": "St. Andrews Botanic Garden  ", "longitude": -2.8046743, "country": "United Kingdom"}, {"latitude": -30.2963121, "city": "Coffs Harbour 2450 /N.S.W.", "name": "North Coast Regional Botanic Garden ", "longitude": 153.1156722, "country": "AUSTRALIA"}, {"latitude": 55.19443589999999, "city": "Vitebsk", "name": "Belarus Hortus Botanicus ", "longitude": 30.1953792, "country": "REPUBLIC OF BELARUS"}, {"latitude": 53.9, "city": "Minsk", "name": "Hortus Botanicus Central. National Academy of Sciences of Belarus ", "longitude": 27.5666667, "country": "REPUBLIC OF BELARUS"}, {"latitude": 41.00527, "city": "Istanbul", "name": "Istanbul \u00dcniversitesi Botanik Bahcesi Botanik Ana Bilim Dali", "longitude": 28.97696, "country": "T\u00dcRKEI"}, {"latitude": 40.65, "city": "Yalova / T\u00dcRKIYE", "name": "Karaca Arboretum  ", "longitude": 29.2666667, "country": "T\u00dcRKEI"}, {"latitude": 50.877571, "city": "Leuven", "name": "Kruidtuin van de Stad Leuven Hortus Botanicus Lovaniensis ", "longitude": 4.704327999999999, "country": "BELGIUM"}, {"latitude": 37.950197, "city": "Asgabat/Turkmeniya", "name": "Hortus Botanicus Turkmenisitan, Asgabat Botanika Bagy", "longitude": 58.380223, "country": "TURKMENISTAN"}, {"latitude": 48.291683, "city": "Chernovtsi / Ukraine", "name": "Botanical Garden of the Jurij Fedkovich National University ", "longitude": 25.935217, "country": "UKRAINA"}, {"latitude": 47.070714, "city": "Graz", "name": "Botanischer Garten Karl-Franzens-Universit\u00e4t Graz ", "longitude": 15.439504, "country": "\u00d6STERREICH"}, {"latitude": 51.054075, "city": "Destelbergen", "name": "Dulcamara Hortus Botanicus Destelbergensis Dr.G.Peleman", "longitude": 3.800096, "country": "BELGIUM"}, {"latitude": 46.29255, "city": "Saint-Triphon", "name": "Jardin Botanique Monsieur William Aviolat ", "longitude": 6.97852, "country": "SCHWEIZ"}, {"latitude": 51.1891603, "city": "Antwerpen 1", "name": "Plantentuin Stad Antwerpen ", "longitude": 4.4619208, "country": "BELGIUM"}, {"latitude": 42.6964917, "city": "Sofia", "name": "Hortus Botanicus Instituti Silvitechnici Superioris", "longitude": 23.3260106, "country": "BULGARIA"}, {"latitude": -34.6084175, "city": "DBO- BUENOS AIRES", "name": "Ing. Carlos Eralio R. Ruiz  ", "longitude": -58.37316130000001, "country": "ARGENTINA"}, {"latitude": 46.62794, "city": "Klagenfurt am W\u00f6rthersee", "name": "Landesmuseum K\u00e4rnten K\u00e4rntner Botanikzentrum ", "longitude": 14.30899, "country": "\u00d6STERREICH"}, {"latitude": 50.4501, "city": "Kyiv", "name": "M.M.Gryshko's National Botanical Garden Academy of Sciences of Ukraine", "longitude": 30.5234, "country": "UKRAINA"}, {"latitude": 47.070714, "city": "Graz", "name": "Steirm\u00e4rkisches Landesmuseum Joanneum Alpengarten Rannach ", "longitude": 15.439504, "country": "\u00d6STERREICH"}, {"latitude": 37.8744633, "city": "Berkeley /CA 94720-5045", "name": "Botanical Garden University of California ", "longitude": -122.2526269, "country": "U.S.A."}, {"latitude": 46.484583, "city": "Odessa", "name": "Hortus Botanicus Universitatis ", "longitude": 30.7326, "country": "UKRAINA"}, {"latitude": 48.2081743, "city": "Wien", "name": "Botanischer Garten Universit\u00e4t f\u00fcr Bodenkultur ", "longitude": 16.3738189, "country": "\u00d6STERREICH"}, {"latitude": 48.2081743, "city": "Wien", "name": "Biologisches Labor Wilhelm E. Stemmer ", "longitude": 16.3738189, "country": "\u00d6STERREICH"}, {"latitude": 48.2081743, "city": "Wien", "name": "BUNDESG\u00c4RTEN Alpengarten im Belvedere ", "longitude": 16.3738189, "country": "\u00d6STERREICH"}, {"latitude": 49.839683, "city": "Lviv", "name": "Hortus Botanicus Ivan Franko Lviv State University ", "longitude": 24.029717, "country": "UKRAINA"}, {"latitude": 50.8503396, "city": "Bruxelles", "name": "Universit\u00e9 Libre de Bruxelles Jardin Experimental Jean Massart", "longitude": 4.3517103, "country": "BELGIUM"}, {"latitude": 46.4666667, "city": "Blonay", "name": "Jardin alpin 'La Rambertia' Mme Bruny Monney ", "longitude": 6.899999999999999, "country": "SCHWEIZ"}, {"latitude": 37.797958, "city": "Gyeonggi-do, 487-821", "name": "Korean National Arboretum 415 Kwangreung soomokwon-ro Soheul-Up", "longitude": 127.1633759, "country": "Republic of Korea"}, {"latitude": 50.7670199, "city": "Liberec", "name": "Botanicka Zahrada Botanical Garden Liberec ", "longitude": 15.0561346, "country": "CZECH REPUBLIC"}, {"latitude": 40.7969521, "city": "Morristown / New Jersey 07962-1295", "name": "Fred Spicer Superintendent of Horticulture Morris County Park Commission P.O.Box 1295", "longitude": -74.4796647, "country": "U.S.A."}, {"latitude": 28.1248227, "city": "Las Palmas de Gran Canaria", "name": "Jardin Botanico Canario 'Viera y Clavijo' Cabildo de Gran Canaria", "longitude": -15.4300065, "country": "SPAIN / CANARY ISLANDS"}, {"latitude": 50.133157, "city": "Prague 6 - Suchdol", "name": "Inst. of tropical & subtropical Agriculture Czech Agr. University Prague", "longitude": 14.3768081, "country": "CZECH REPUBLIC"}, {"latitude": 50.1214352, "city": "Praha 7 - Troja", "name": "Prazska Botanicka Zahrada  ", "longitude": 14.419171, "country": "CZECH REPUBLIC"}, {"latitude": 47.4173938, "city": "Porrentruy", "name": "Jardin Botanique Mus\u00e9e Jurassien des Sciences Naturelles", "longitude": 7.0752875, "country": "SCHWEIZ"}, {"latitude": 41.62893649999999, "city": "Kirtland, Ohio, 44094-5172", "name": "Holden Arboretum Charles Tubesing ", "longitude": -81.3614985, "country": "U.S.A."}, {"latitude": 37.41379999999999, "city": "Kyeonggi-do", "name": "Pyung Gang Botanical Garden Sanjeong-Ri 668 Yeongbuk-myun,", "longitude": 127.5183, "country": "Republic of Korea"}, {"latitude": 46.23350000000001, "city": "Meyrin/Gen\u00e8ve", "name": "Commune de Meyrin Mairie Jardin Alpin", "longitude": 6.08, "country": "SCHWEIZ"}, {"latitude": 38.4626548, "city": "Bornova-Izmir", "name": "Ege \u00dcniversitesi Botanik Bahcesi & Herbaryum", "longitude": 27.2440957, "country": "T\u00dcRKEI"}, {"latitude": 47.282948, "city": "Gr\u00fcningen", "name": "Botanischer Garten Im Eichholz ", "longitude": 8.761490799999999, "country": "SCHWEIZ"}, {"latitude": 42.6964917, "city": "Sofia", "name": "Hortus Botanicus Academiae Sci. Bulgaricae ", "longitude": 23.3260106, "country": "BULGARIA"}, {"latitude": 47.2299, "city": "Ennetb\u00fchl / SG", "name": "Botanischer Garten f\u00fcr Alpenpflanzen & Wildpflanzen Herrn Th. Egli-Brenn", "longitude": 9.19439, "country": "SCHWEIZ"}, {"latitude": 48.1483765, "city": "Bratislava 3", "name": "Hortus plantarum medicarum Facultatis pharmaceuticae Universitatis Comenianae", "longitude": 17.1073105, "country": "SLOVAKIA"}, {"latitude": 39.8467767, "city": "Kennett Square , PA. 19348-0501", "name": "Longwood Gardens  ", "longitude": -75.7116032, "country": "U.S.A."}, {"latitude": 47.557421, "city": "Basel", "name": "Botanischer Garten der Universit\u00e4t Basel ", "longitude": 7.592572699999999, "country": "SCHWEIZ"}, {"latitude": 33.060208, "city": "Encinitas,CA. 92023-0005", "name": "Quail Botanic Gardens Foundation Inc. P.O.BOX 230005", "longitude": -117.2657906, "country": "U.S.A."}, {"latitude": 46.0514263, "city": "Ljubljana", "name": "Botanicni vrt Univerze v Ljubiljani ", "longitude": 14.5059655, "country": "SLOVENIJA"}, {"latitude": 38.5366667, "city": "Dushanbe", "name": "Pamirensis Hortus Botanicus  ", "longitude": 68.78, "country": "Republic of Tajikistan"}, {"latitude": 28.4133926, "city": "Puerto de la Cruz / Tenerife", "name": "Jardin de Aclimatacion de la Orotava ", "longitude": -16.5451558, "country": "SPAIN / CANARY ISLANDS"}, {"latitude": 47.01386, "city": "Grambach", "name": "Alpengarten Zenz Alpin.Botanische Pflanzensammlung ", "longitude": 15.50286, "country": "\u00d6STERREICH"}, {"latitude": 50.9921829, "city": "Altenburg", "name": "Botanischer Garten der Stadt ", "longitude": 12.4443291, "country": "Deutschland"}, {"latitude": 33.2541205, "city": "Seogwipo Jejudo", "name": "Donneko Botanical Garden  ", "longitude": 126.560076, "country": "Republic of Korea"}, {"latitude": 10.24462, "city": "Maracay", "name": "Jardin Botanico Universitario Maracay (JABUM) ", "longitude": -67.59374199999999, "country": "VENEZUELA"}, {"latitude": 50.06465009999999, "city": "Krakow", "name": "Garden of Medicinal Plants Department of Pharmacognosy Jagiellonian University", "longitude": 19.9449799, "country": "POLAND"}, {"latitude": 47.913826, "city": "Ulaanbaatar 51 (Ulan-Bator)", "name": "Hortus Botanicus Mongolia Botanical Garden Institute of Botany Mongolian Academy of Sciences", "longitude": 106.9744094, "country": "MONGOLIA"}, {"latitude": 43.7904171, "city": "Ventimiglia", "name": "Giardini Botanici Hanbury Laboratorio semi Corso Montecarlo 43", "longitude": 7.607139, "country": "ITALY"}, {"latitude": 42.35069780000001, "city": "L'Aquila", "name": "Alpine Botanical Garden of Campo Imperatore DIPART. DI SCIENZE AMBIENTALI Universita' degli Studi dell' Aquila", "longitude": 13.3999338, "country": "ITALY"}, {"latitude": 44.4070624, "city": "Genova", "name": "Istituto ed Orto Botanico Hanbury Universita' degli studi", "longitude": 8.9339889, "country": "ITALY"}, {"latitude": 27.702871, "city": "Kathmandu", "name": "Royal Botanical Garden, Godawari / Lalitpur Arboretum and Conservation Dept. of plant resources", "longitude": 85.31824399999999, "country": "NEPAL"}, {"latitude": -43.538259, "city": "Christchurch 8140", "name": "Christchurch Botanic Gardens Botanical Resources Coordinator Park & Waterways Unit, Christchurch City Council", "longitude": 172.643189, "country": "NEW ZEALAND"}, {"latitude": 45.6949028, "city": "Bergamo", "name": "Orto Botanico di Bergamo Lorenzo Rota", "longitude": 9.669952799999999, "country": "ITALY"}, {"latitude": 22.2478599, "city": "Hong Kong", "name": "Hong Kong Herbarium Agricultur, Fisheries & Conservation Dep. 7/F., Cheung Sha Wan Government Offices", "longitude": 114.2033843, "country": "HONG KONG"}, {"latitude": 47.710906, "city": "V\u00e1cr\u00e1t\u00f3t", "name": "BOTANIKUS KERTJE Magyar Tudom\u00e1nyos Akad\u00e9mia \u00d6kol\u00f3giai \u00e9s Botanikai", "longitude": 19.235309, "country": "HUNGARY"}, {"latitude": -44.3969718, "city": "TIMARU", "name": "The Parks Manager Timaru Botanic Gardens Timaru District Council", "longitude": 171.2549729, "country": "NEW ZEALAND"}, {"latitude": 43.73841760000001, "city": "Monaco Cedex", "name": "Principaut\u00e9 de Monaco Service de L'\u00c1m\u00e9nagement Urbain ", "longitude": 7.424615799999999, "country": "MONACO"}, {"latitude": 47.95325829999999, "city": "Ny\u00edregyh\u00e1za", "name": "Tuzson Janos Botanicus Kert Nyiregyh\u00e0zi F\u00f6iskola ", "longitude": 21.7264647, "country": "HUNGARY"}, {"latitude": 51.6600188, "city": "Voronezh", "name": "Hortus Botanicus B.M. Kozo-Poljanskii Universitatis Voronegiensis", "longitude": 39.1974105, "country": "RUSSIA"}, {"latitude": 47.4241, "city": "St. Gallen", "name": "Botanischer Garten  ", "longitude": 9.37088, "country": "SCHWEIZ"}, {"latitude": 47.4984056, "city": "Budapest", "name": "Budapest F\u00f6v\u00e1rosi Allat \u00e9s N\u00f6v\u00e9nykert, Zoo- Botanic Garden Bp. 5.  Pf. 469", "longitude": 19.0407578, "country": "HUNGARY"}, {"latitude": 52.3702157, "city": "Amsterdam", "name": "Hortus en terreinen van de Vrije Universiteit ", "longitude": 4.895167900000001, "country": "NETHERLANDS"}, {"latitude": 0, "city": "Elsloo/Limb.", "name": "Botanische Tuin I.V.N.  ", "longitude": 0, "country": "NETHERLANDS"}, {"latitude": 37.97918, "city": "Athens - Hellas", "name": "University of Athens Julia & Alexander N. Diomides Botanic Garden", "longitude": 23.716647, "country": "GREECE"}, {"latitude": 52.3060853, "city": "Hoofddorp", "name": "Botanische tuin De Heimanshof p.a. H.Nijenhuis ", "longitude": 4.6907041, "country": "NETHERLANDS"}, {"latitude": 54.9866308, "city": "Newcastle NE2 4NL", "name": "Moor Bank Gardens University of Newcastle-on-Tyne ", "longitude": -1.6339525, "country": "United Kingdom"}, {"latitude": 53.4084126, "city": "Manchester M20 2SW", "name": "Fletcher Moss Botanic Gardens Mill Lane, Didsbury", "longitude": -2.2290166, "country": "United Kingdom"}, {"latitude": 55.8781502, "city": "Glasgow/Scotl. G12 0UE", "name": "Botanical Gardens  ", "longitude": -4.2898555, "country": "United Kingdom"}, {"latitude": 54.872741, "city": "Castle Douglas/Scotl.DG7 2DJ", "name": "Cally Gardens Gatehouse of Fleet ", "longitude": -4.1777371, "country": "United Kingdom"}, {"latitude": 52.1960083, "city": "Cambridge CB2 1JE", "name": "University Botanic Garden  ", "longitude": 0.1229903, "country": "United Kingdom"}, {"latitude": 51.4769588, "city": "Bristol/England BS9 1JB", "name": "Botanic Garden Bristol University c/o Waltham CottageYard", "longitude": -2.6239733, "country": "United Kingdom"}, {"latitude": 46.0713203, "city": "P\u00e9cs", "name": "Janus Pannonius Tudomanyegaetem N\u00f6venytani Tanszek es Botanikus Kert, Hortus Botanikus Universitatis", "longitude": 18.2331432, "country": "HUNGARY"}, {"latitude": 45.18588769999999, "city": "Pavia", "name": "Giardino Botanico Alpino Di Pietra Corva c/o Provincia di Pavia", "longitude": 9.1565627, "country": "ITALY"}, {"latitude": -6.597221999999999, "city": "Bogor, 16122 / WEST JAVA", "name": "Bogor Botanic Gardens Lombaga Ilmu Pengotahuan Indonesia Pusat Konservasi Tumbuhan-Kebun Raya Bogor", "longitude": 106.820991, "country": "INDONESIA"}, {"latitude": 31.768318, "city": "Jerusalem 91904", "name": "Jerusalem Botanical Garden Institute of Live Sciences The Hebrew University", "longitude": 35.213711, "country": "ISRAEL"}, {"latitude": 35.7759894, "city": "Matsudo-City, Chiba Prefecture,  271-8510", "name": "Laboratory of Floriculture and Ornamental Horticultre Faculty of Horticulture", "longitude": 139.9008687, "country": "JAPAN"}, {"latitude": 36.0539087, "city": "Ibaraki Prefecture, 305-0843", "name": "Research Center for Medical Plant Resources National Institute of Biomedical Innovation 1 Hachimandai, Tsukuba-Shi", "longitude": 140.0771401, "country": "JAPAN"}, {"latitude": 35.3482276, "city": "Kanagawa-ken  247-0072", "name": "Kanagawa prefectural OFUNA BOTANICAL GARDEN ", "longitude": 139.5226525, "country": "JAPAN"}, {"latitude": 35.8910841, "city": "Koshigaya-shi", "name": "The Aritaki Arboretum  ", "longitude": 139.7909377, "country": "JAPAN"}, {"latitude": 35.0453636, "city": "Kyoto 606-0823", "name": "Kyoto Botanical Garden Hangi-cho Shimogamo", "longitude": 135.7648568, "country": "JAPAN"}, {"latitude": 46.0649418, "city": "Udine", "name": "Orto Botanico Friulano  ", "longitude": 13.2307247, "country": "ITALY"}, {"latitude": 45.6536295, "city": "Trieste", "name": "Comune di Trieste Civico Orto Botanico ", "longitude": 13.7784072, "country": "ITALY"}, {"latitude": 46.0667123, "city": "Trento", "name": "Giardino Botanico Alpino 'Viotte' Museo Tridentino di Scienze Naturali ", "longitude": 11.1190591, "country": "ITALY"}, {"latitude": 35.0505713, "city": "Kyoto 606-8134", "name": "Kyoto Takeda Herbal Garden Takenouchi-cho 11 Ichijoji", "longitude": 135.8033118, "country": "JAPAN"}, {"latitude": 59.93903899999999, "city": "St. Petersburg", "name": "Hortus Botanicus seed laboratory of Botanical Garden Academiae Scientarum Rossicae", "longitude": 30.315785, "country": "RUSSIA"}, {"latitude": 43.7161354, "city": "Pisa", "name": "Orto Botanico Dipartimento di Scienze Botaniche", "longitude": 10.3965843, "country": "ITALY"}, {"latitude": 43.790814, "city": "Menton Garavan", "name": "Jardin Botanique Exotique Val Rahmeh ", "longitude": 7.5147032, "country": "FRANCE"}, {"latitude": 45.4095382, "city": "Padova", "name": "Orto Botanico dell Universit\u00e0 di Padova ", "longitude": 11.8765537, "country": "ITALY"}, {"latitude": 57.6969943, "city": "G\u00f6teborg", "name": "G\u00f6teborgs Botaniska Tr\u00e4dgard  ", "longitude": 11.9865, "country": "SWEDEN"}, {"latitude": 43.0635596, "city": "Sapporo, Hokkaido, 060-0003", "name": "Botanic Garden Faculty of Agriculture Hokkaido University", "longitude": 141.3407706, "country": "JAPAN"}, {"latitude": 56.9924086, "city": "Ivanovo", "name": "Dendrariy / Arboretum of Ivanovo State Agricultural Academy ", "longitude": 40.96778880000001, "country": "RUSSIA"}, {"latitude": 38.268215, "city": "Sendai", "name": "Botanical Garden Tohoku University ", "longitude": 140.8693558, "country": "JAPAN"}, {"latitude": 43.255058, "city": "Almaty (Alma-Ata)", "name": "Main Botanical Garden of Kazakhstan Inst. of Plant Physiology Genetics & Bioengineering", "longitude": 76.912628, "country": "Republic of Kazakhstan"}, {"latitude": 49.8333333, "city": "Quaraghandy (Karaganda)", "name": "Hortus Botanicus Institute of Phytochemistry ", "longitude": 73.1666667, "country": "Republic of Kazakhstan"}, {"latitude": 42.870022, "city": "Bishkek", "name": "Botanical Garden of NAS KR ", "longitude": 74.58788299999999, "country": "KYRGHYSTAN REPUBLIC"}, {"latitude": 62.0392609, "city": "Jakutsk", "name": "Hortus Botanicus Chuchur-Muran ", "longitude": 129.7463988, "country": "RUSSIA"}, {"latitude": 54.5933964, "city": "Vilnius - 40", "name": "Botanikos Sodas Vilniaus Universitetas ", "longitude": 25.2476319, "country": "LITHUANIA"}, {"latitude": 45.0391312, "city": "Stavropol'/Kauk.", "name": "Hortus Botanikus  P.O.Box 22", "longitude": 41.9821396, "country": "RUSSIA"}, {"latitude": 59.93903899999999, "city": "St. Petersburg", "name": "Hortus Botanicus St. Petersburg Forest Technical Academy Academiae Silvo-technicae", "longitude": 30.315785, "country": "RUSSIA"}, {"latitude": 35.0585204, "city": "Kyoto 603-8047", "name": "Kamigamo Experimental Station, Field Science Education & Research Center, Kyoto Univercity, 2 Motoyama,", "longitude": 135.7631568, "country": "JAPAN"}, {"latitude": 50.98396899999999, "city": "Tharandt", "name": "Forstbotanischer Garten TU Dresden,  Fachrichtung Forstwissenschaften Tharandt", "longitude": 13.582838, "country": "Deutschland"}, {"latitude": 40.4166909, "city": "Madrid", "name": "Banco de Semillas Escuela T.S. de Ing.Agronomos Universidad Politecnica de Madrid", "longitude": -3.700345399999999, "country": "SPAIN"}, {"latitude": 37.88472670000001, "city": "Cordoba", "name": "Jardin Botanico de Cordoba Banco de Germoplasma Vegetal Andaluz ", "longitude": -4.7791517, "country": "SPAIN"}, {"latitude": 41.6742668, "city": "Blanes /Girona", "name": "Jardi Botanic Marimurtra Estatio International de Biologia Mediterrania Apartat. 112", "longitude": 2.7920964, "country": "SPAIN"}, {"latitude": 41.387917, "city": "Barcelona", "name": "Jardi Botanic de Barcelona Index Seminum Parque de Montjuic", "longitude": 2.1699187, "country": "SPAIN"}, {"latitude": 18.5, "city": "Santo Domingo", "name": "Jardin Botanico Nacional \u201eDr. Rafael Ma. Moscoso\" Departamento de Horticultura, Apto.Postal  21 - 9", "longitude": -69.9833333, "country": "THE DOMINICAN REPUBLIC"}, {"latitude": 56.1460465, "city": "Aarhus C", "name": "Herbarium Dept. of Systematic Botany, Ins. of Biol. Sciences University of Aarhus, Building 1137", "longitude": 10.202726, "country": "DANMARK"}, {"latitude": 56.1460465, "city": "Aarhus C", "name": "Botanisk Have Arhus Kommunes Naturforvaltningen", "longitude": 10.202726, "country": "DANMARK"}, {"latitude": 49.794256, "city": "W\u00fcrzburg", "name": "Botanischer Garten der Bayerischen Julius-Maximilians-Universit\u00e4t W\u00fcrzburg ", "longitude": 9.927489, "country": "Deutschland"}, {"latitude": 51.1078852, "city": "Wroclaw", "name": "Ogrod Roslin Leczniczych Katedra i Zaklad Biologii i Botaniki Farmaceutyczn Akademii Medycznej ew Wroclawu", "longitude": 17.0385376, "country": "POLAND"}, {"latitude": 53.517063, "city": "Wilhelmshaven", "name": "Botanischer Garten der Stadt Wilhelmshaven ", "longitude": 8.119748999999999, "country": "Deutschland"}, {"latitude": 64.13533799999999, "city": "Reykjav\u00edk", "name": "Hortus Botanicus Reykjavicensis ", "longitude": -21.89521, "country": "ICELAND"}, {"latitude": 57.1680165, "city": "Aberdeen AB24 3UU /Scotland", "name": "Cruickshank Botanic Garden University opf Aberdeen Dep. of Plant & Soil Science", "longitude": -2.1036941, "country": "United Kingdom"}, {"latitude": 47.59751960000001, "city": "G\u00f6d\u00f6ll\u00f6", "name": "Botanical Garden Szent Istvan University, Fac. of Agricultural Dept. of Botany & Plant Physiology", "longitude": 19.348024, "country": "HUNGARY"}, {"latitude": 37.17648740000001, "city": "Granada", "name": "Jardin Botanico Universitario de Sierra Nevada Universidad de Granada", "longitude": -3.5979291, "country": "SPAIN"}, {"latitude": 48.7771056, "city": "Stuttgart", "name": "Wilhelma Zoologisch-botanischer Garten ", "longitude": 9.1807688, "country": "Deutschland"}, {"latitude": 54.0902273, "city": "Rostock", "name": "Botanischer Garten Universit\u00e4t Rostock ", "longitude": 12.1329354, "country": "Deutschland"}, {"latitude": 49.01649099999999, "city": "Regensburg", "name": "Botanischer Garten der Universit\u00e4t Regensburg ", "longitude": 12.100904, "country": "Deutschland"}, {"latitude": 52.39685069999999, "city": "Potsdam", "name": "Botanischer Garten der Universit\u00e4t Potsdam Postfach 60 15 53", "longitude": 13.0584812, "country": "Deutschland"}, {"latitude": 52.267281, "city": "Osnabr\u00fcck", "name": "Botanischer Garten Universit\u00e4t Osnabr\u00fcck Fachber. Biologie/Chemie ", "longitude": 8.0531882, "country": "Deutschland"}, {"latitude": 44.32476, "city": "Craiova", "name": "Gradina Botanica Alexandru Buia a Universitatii", "longitude": 23.813471, "country": "ROMANIA"}, {"latitude": 48.1391265, "city": "M\u00fcnchen", "name": "Botanischer Garten M\u00fcnchen  ", "longitude": 11.5801863, "country": "Deutschland"}, {"latitude": 51.1063973, "city": "Bad Langensalza", "name": "Gartenbauamt Bad Langensalza - Botanischer Garten - ", "longitude": 10.6488549, "country": "Deutschland"}, {"latitude": 51.191261, "city": "M\u00f6nchengladbach", "name": "Botanischer Garten Amt f\u00fcr Gr\u00fcnfl\u00e4chen & Friedh\u00f6fe Botanischer Garten", "longitude": 6.442066, "country": "Deutschland"}, {"latitude": 49.9949895, "city": "Mainz", "name": "Botanischer Garten der Johannes Gutenberg Univ. ", "longitude": 8.26732, "country": "Deutschland"}, {"latitude": 47.66193699999999, "city": "Konstanz", "name": "Botanischer Garten Fakult\u00e4t f\u00fcr Biologie Universit\u00e4t Konstanz", "longitude": 9.1724257, "country": "Deutschland"}, {"latitude": 50.9406645, "city": "K\u00f6ln", "name": "Botanischer Garten der Stadt K\u00f6ln ", "longitude": 6.9599115, "country": "Deutschland"}, {"latitude": 52.406374, "city": "Poznan", "name": "Dendrological Garden of August Cieszkowski Agricultural University of Poznan", "longitude": 16.9251681, "country": "POLAND"}, {"latitude": 38.70693199999999, "city": "Lisboa", "name": "Jardim Botanico da Universidade de Lisboa Servico de Sementes", "longitude": -9.135632099999999, "country": "PORTUGAL"}, {"latitude": 54.322684, "city": "Kiel", "name": "Botanischer Garten der Christian-Albrecht-Universit\u00e4t ", "longitude": 10.13586, "country": "Deutschland"}, {"latitude": 43.673417, "city": "Saint Laurent Du Var", "name": "Bernard Bouet Phoenix Parc Floral de Nice Les Hortensias Bat C", "longitude": 7.189811, "country": "FRANCE"}, {"latitude": 51.9691868, "city": "Wageningen", "name": "Botanical Gardens Wageningen Agricultural Univ. ", "longitude": 5.6653948, "country": "NETHERLANDS"}, {"latitude": 45.188529, "city": "Grenoble Cedex 9", "name": "Universit\u00e9 Joseph Fourier de Grenoble Jardin Alpin du Lautaret ", "longitude": 5.724524, "country": "FRANCE"}, {"latitude": 46.672737, "city": "La Chaize le Vicomte", "name": "Jean-Luc GATARD La Vergne Gestin ", "longitude": -1.292401, "country": "FRANCE"}, {"latitude": 50.9741745, "city": "Munstergeleen", "name": "Botanic Garden Munstergeleen Seed Exchange ", "longitude": 5.8639537, "country": "NETHERLAND"}, {"latitude": 40.211491, "city": "Coimbra", "name": "Jardim Botanico da Universidade Arcos do Jardim", "longitude": -8.4292014, "country": "PORTUGAL"}, {"latitude": 38.542629, "city": "Horta (Faial)", "name": "Jardim Botanico do Faial  ", "longitude": -28.62726, "country": "PORTUGAL"}, {"latitude": 46.084044, "city": "Samo\u00ebns", "name": "Jardin Botanique Alpin 'La Jaysinia' Station d'Ecologie V\u00e9g\u00e9tale", "longitude": 6.728173, "country": "FRANCE"}, {"latitude": 38.70693199999999, "city": "Lisboa", "name": "Jardim-Museu Agricola Tropical  ", "longitude": -9.135632099999999, "country": "PORTUGAL"}, {"latitude": 48.856614, "city": "Paris cedex 05", "name": "Museum National d'Histoire Naturelle D\u00e9partement des Jardins Botaniques et Zoologiques Graineterie", "longitude": 2.3522219, "country": "FRANCE"}, {"latitude": 47.8615685, "city": "Nogent-s-Vernisson", "name": "Arboretum National des Barres E.N.G.R.E.F. Domaine des Barres", "longitude": 2.7395105, "country": "FRANCE"}, {"latitude": 39.7658256, "city": "Soller (Illes Balears  - Mallorca)", "name": "Jardi Botanic de Soller  Apartado 44", "longitude": 2.7142376, "country": "SPAIN"}, {"latitude": 47.218371, "city": "Nantes Cedex 01", "name": "VILLE DE NANTES Jardin Botanique Service des Espaces Verts et de l'Environnement", "longitude": -1.553621, "country": "FRANCE"}, {"latitude": 39.4702393, "city": "Valencia", "name": "Jardi Botanic de Valencia LA UNIVERSITAT DE VAL\u00c8NCIA Jaime G\u00fcemes", "longitude": -0.3768049, "country": "SPAIN"}, {"latitude": 38.6973454, "city": "Oeiras", "name": "Estacao Agronomica Nacional Herbario A.R. Pinto da Silva ", "longitude": -9.308361699999999, "country": "PORTUGAL"}, {"latitude": 32.6511111, "city": "Funchal (Madeira)", "name": "Jardim Botanico da Madeira  ", "longitude": -16.9097222, "country": "PORTUGAL"}, {"latitude": 51.8504376, "city": "Goluch\u00f3w", "name": "Arboretum Goluch\u00f3w Osrodek Kultury Lesnej ", "longitude": 17.9315901, "country": "POLAND"}, {"latitude": 44.837789, "city": "Bordeaux", "name": "Jardin Botanique de Talence ", "longitude": -0.57918, "country": "FRANCE"}, {"latitude": 51.7673754, "city": "L\u00f3dz - 28", "name": "Ogr\u00f3d Botaniczny  ", "longitude": 19.4410487, "country": "POLAND"}, {"latitude": 58.3708837, "city": "Tartu", "name": "Institute of Pharmacy Tartu Univercity Ulve Pihlik", "longitude": 26.7148282, "country": "ESTONIA"}, {"latitude": 51.7592485, "city": "L\u00f3dz", "name": "Hortus Plantarum Medicarum Academiae Medicae Lodzensis ", "longitude": 19.4559833, "country": "POLAND"}, {"latitude": 59.4388619, "city": "Tallinn", "name": "Hortus Botanicus Tallinnensis ", "longitude": 24.7544715, "country": "ESTONIA"}, {"latitude": 52.406374, "city": "Poznan", "name": "Ogrod Botaniczny Uniwersytetu Im.A.Mickiewicza ", "longitude": 16.9251681, "country": "POLAND"}, {"latitude": 43.5452608, "city": "Gij\u00f3n (Asturias)", "name": "Jardin Botanico Atlantico  ", "longitude": -5.6619264, "country": "SPAIN"}, {"latitude": 52.406374, "city": "Poznan", "name": "Department of Medic. Plants Academy of Medicine Poznan University of Medical Sciences", "longitude": 16.9251681, "country": "POLAND"}, {"latitude": 52.1603216, "city": "Leiden", "name": "Hortus Botanicus Leiden ", "longitude": 4.493926200000001, "country": "NETHERLANDS"}, {"latitude": 43.696036, "city": "Nice", "name": "Jardin Botanique de la Ville de Nice Service des Espaces Verts", "longitude": 7.265592, "country": "FRANCE"}]